{
  "type": "FeatureCollection",
  "features": [
    {
      "type": "Feature",
      "properties": {
        "name": "Kiwi Stranda"
      },
      "geometry": {
        "type": "Point",
        "coordinates": [
          6.945996,
          62.3071546
        ]
      }
    },
    {
      "type": "Feature",
      "properties": {
        "name": "Spar Stranda"
      },
      "geometry": {
        "type": "Point",
        "coordinates": [
          6.9184685,
          62.311451
        ]
      }
    },
    {
      "type": "Feature",
      "properties": {
        "name": "Joker Hellesylt"
      },
      "geometry": {
        "type": "Point",
        "coordinates": [
          6.8694645,
          62.0844049
        ]
      }
    },
    {
      "type": "Feature",
      "properties": {
        "name": "Bunnpris Ikornnes"
      },
      "geometry": {
        "type": "Point",
        "coordinates": [
          6.5552491,
          62.38572
        ]
      }
    },
    {
      "type": "Feature",
      "properties": {
        "name": "Kiwi Sykkylven"
      },
      "geometry": {
        "type": "Point",
        "coordinates": [
          6.5826935,
          62.3913738
        ]
      }
    },
    {
      "type": "Feature",
      "properties": {
        "name": "Coop Sjøholt"
      },
      "geometry": {
        "type": "Point",
        "coordinates": [
          6.8134654,
          62.4828738
        ]
      }
    },
    {
      "type": "Feature",
      "properties": {
        "name": "Rema Digernes"
      },
      "geometry": {
        "type": "Point",
        "coordinates": [
          6.6056263,
          62.4920649
        ]
      }
    },
    {
      "type": "Feature",
      "properties": {
        "name": "Kiwi Fiskarstrand"
      },
      "geometry": {
        "type": "Point",
        "coordinates": [
          6.2732685,
          62.4404376
        ]
      }
    },
    {
      "type": "Feature",
      "properties": {
        "name": "Rema Brattvåg"
      },
      "geometry": {
        "type": "Point",
        "coordinates": [
          6.4379668,
          62.6054081
        ]
      }
    },
    {
      "type": "Feature",
      "properties": {
        "name": "Rema Valderøy"
      },
      "geometry": {
        "type": "Point",
        "coordinates": [
          6.1165416,
          62.5284075
        ]
      }
    },
    {
      "type": "Feature",
      "properties": {
        "name": "Spar Valderøy"
      },
      "geometry": {
        "type": "Point",
        "coordinates": [
          6.1279678,
          62.5089578
        ]
      }
    },
    {
      "type": "Feature",
      "properties": {
        "name": "Bunnpris Valderøy"
      },
      "geometry": {
        "type": "Point",
        "coordinates": [
          6.1300492,
          62.4989149
        ]
      }
    },
    {
      "type": "Feature",
      "properties": {
        "name": "Coop Volda"
      },
      "geometry": {
        "type": "Point",
        "coordinates": [
          6.082145,
          62.1444346
        ]
      }
    },
    {
      "type": "Feature",
      "properties": {
        "name": "Kiwi Volda"
      },
      "geometry": {
        "type": "Point",
        "coordinates": [
          6.0746348,
          62.1455074
        ]
      }
    },
    {
      "type": "Feature",
      "properties": {
        "name": "Rema Ørsta"
      },
      "geometry": {
        "type": "Point",
        "coordinates": [
          6.1224318,
          62.1906291
        ]
      }
    },
    {
      "type": "Feature",
      "properties": {
        "name": "Joker Vatne"
      },
      "geometry": {
        "type": "Point",
        "coordinates": [
          6.616838,
          62.5605508
        ]
      }
    },
    {
      "type": "Feature",
      "properties": {
        "name": "Kleskontainer M27 Bunnpris Vatne"
      },
      "geometry": {
        "type": "Point",
        "coordinates": [
          6.5931273,
          62.5452304
        ]
      }
    },
    {
      "type": "Feature",
      "properties": {
        "name": "Kiwi Flisnes"
      },
      "geometry": {
        "type": "Point",
        "coordinates": [
          6.4135909,
          62.4319879
        ]
      }
    },
    {
      "type": "Feature",
      "properties": {
        "name": "Kiwi Ørsta"
      },
      "geometry": {
        "type": "Point",
        "coordinates": [
          6.1272383,
          62.1992221
        ]
      }
    },
    {
      "type": "Feature",
      "properties": {
        "name": "Coop Søvik"
      },
      "geometry": {
        "type": "Point",
        "coordinates": [
          6.2785685,
          62.5482625
        ]
      }
    },
    {
      "type": "Feature",
      "properties": {
        "name": "Joker Hundeidvik"
      },
      "geometry": {
        "type": "Point",
        "coordinates": [
          6.4261866,
          62.3750262
        ]
      }
    },
    {
      "type": "Feature",
      "properties": {
        "name": "Valldal Bunnpris"
      },
      "geometry": {
        "type": "Point",
        "coordinates": [
          7.2565717,
          62.2974091
        ]
      }
    },
    {
      "type": "Feature",
      "properties": {
        "name": "Esso Stranda"
      },
      "geometry": {
        "type": "Point",
        "coordinates": [
          6.9226313,
          62.3073927
        ]
      }
    },
    {
      "type": "Feature",
      "properties": {
        "name": "Ostelager Stranda"
      },
      "geometry": {
        "type": "Point",
        "coordinates": [
          6.9484234,
          62.3102595
        ]
      }
    },
    {
      "type": "Feature",
      "properties": {
        "name": "Spar Fosnavåg"
      },
      "geometry": {
        "type": "Point",
        "coordinates": [
          5.634495,
          62.3291984
        ]
      }
    },
    {
      "type": "Feature",
      "properties": {
        "name": "Coop Fosnavåg"
      },
      "geometry": {
        "type": "Point",
        "coordinates": [
          5.6371772,
          62.3256807
        ]
      }
    },
    {
      "type": "Feature",
      "properties": {
        "name": "Klescontainer M35 Rema Fosnavåg"
      },
      "geometry": {
        "type": "Point",
        "coordinates": [
          5.6389368,
          62.3252571
        ]
      }
    },
    {
      "type": "Feature",
      "properties": {
        "name": "Coop Moltustranda"
      },
      "geometry": {
        "type": "Point",
        "coordinates": [
          5.6333148,
          62.2939923
        ]
      }
    },
    {
      "type": "Feature",
      "properties": {
        "name": "Coop Larsnes"
      },
      "geometry": {
        "type": "Point",
        "coordinates": [
          5.5720747,
          62.2062317
        ]
      }
    },
    {
      "type": "Feature",
      "properties": {
        "name": "Coop Grodås"
      },
      "geometry": {
        "type": "Point",
        "coordinates": [
          6.5257394,
          61.9691089
        ]
      }
    },
    {
      "type": "Feature",
      "properties": {
        "name": "Joker Vigra"
      },
      "geometry": {
        "type": "Point",
        "coordinates": [
          6.0699731,
          62.5580441
        ]
      }
    },
    {
      "type": "Feature",
      "properties": {
        "name": "Coop Hareid"
      },
      "geometry": {
        "type": "Point",
        "coordinates": [
          6.0278517,
          62.3707252
        ]
      }
    },
    {
      "type": "Feature",
      "properties": {
        "name": "Rema Ulsteinvik"
      },
      "geometry": {
        "type": "Point",
        "coordinates": [
          5.8531594,
          62.3380857
        ]
      }
    },
    {
      "type": "Feature",
      "properties": {
        "name": "Elkjøp Volda"
      },
      "geometry": {
        "type": "Point",
        "coordinates": [
          6.0434246,
          62.1724743
        ]
      }
    },
    {
      "type": "Feature",
      "properties": {
        "name": "Rema/Ford"
      },
      "geometry": {
        "type": "Point",
        "coordinates": [
          7.1986842,
          62.7407981
        ]
      }
    },
    {
      "type": "Feature",
      "properties": {
        "name": "Kiwi Nordbyen"
      },
      "geometry": {
        "type": "Point",
        "coordinates": [
          7.2355887,
          62.7525831
        ]
      }
    },
    {
      "type": "Feature",
      "properties": {
        "name": "Bunnpris Gourmet"
      },
      "geometry": {
        "type": "Point",
        "coordinates": [
          7.1991026,
          62.7446406
        ]
      }
    },
    {
      "type": "Feature",
      "properties": {
        "name": "Bunnpris Isfjorden"
      },
      "geometry": {
        "type": "Point",
        "coordinates": [
          7.7934211,
          62.5779941
        ]
      }
    },
    {
      "type": "Feature",
      "properties": {
        "name": "Spar Tresfjord"
      },
      "geometry": {
        "type": "Point",
        "coordinates": [
          7.1274447,
          62.5224777
        ]
      }
    },
    {
      "type": "Feature",
      "properties": {
        "name": "Kai Vikebukt"
      },
      "geometry": {
        "type": "Point",
        "coordinates": [
          7.1455657,
          62.6141987
        ]
      }
    },
    {
      "type": "Feature",
      "properties": {
        "name": "Shell Molde"
      },
      "geometry": {
        "type": "Point",
        "coordinates": [
          7.1933305,
          62.7395548
        ]
      }
    },
    {
      "type": "Feature",
      "properties": {
        "name": "Shell Åndalsnes"
      },
      "geometry": {
        "type": "Point",
        "coordinates": [
          7.6810473,
          62.558452
        ]
      }
    },
    {
      "type": "Feature",
      "properties": {
        "name": "Amfi Ørsta"
      },
      "geometry": {
        "type": "Point",
        "coordinates": [
          6.1249048,
          62.1993972
        ]
      }
    },
    {
      "type": "Feature",
      "properties": {
        "name": "Esso Nordførdeid"
      },
      "geometry": {
        "type": "Point",
        "coordinates": [
          5.9800869,
          61.9120559
        ]
      }
    },
    {
      "type": "Feature",
      "properties": {
        "name": "Rema Deknepollen"
      },
      "geometry": {
        "type": "Point",
        "coordinates": [
          5.1479423,
          61.9259568
        ]
      }
    },
    {
      "type": "Feature",
      "properties": {
        "name": "Innvik"
      },
      "geometry": {
        "type": "Point",
        "coordinates": [
          6.6140914,
          61.8513636
        ]
      }
    },
    {
      "type": "Feature",
      "properties": {
        "name": "Utvik"
      },
      "geometry": {
        "type": "Point",
        "coordinates": [
          6.5182722,
          61.8068064
        ]
      }
    },
    {
      "type": "Feature",
      "properties": {
        "name": "Bunnpris Olden"
      },
      "geometry": {
        "type": "Point",
        "coordinates": [
          6.8051344,
          61.8349589
        ]
      }
    },
    {
      "type": "Feature",
      "properties": {
        "name": "Klescontainer M68 Coop Fiskå"
      },
      "geometry": {
        "type": "Point",
        "coordinates": [
          5.5580065,
          62.0984093
        ]
      }
    },
    {
      "type": "Feature",
      "properties": {
        "name": "Coop Syvde"
      },
      "geometry": {
        "type": "Point",
        "coordinates": [
          5.7384333,
          62.0893935
        ]
      }
    },
    {
      "type": "Feature",
      "properties": {
        "name": "Best Sandane"
      },
      "geometry": {
        "type": "Point",
        "coordinates": [
          6.2326437,
          61.770106
        ]
      }
    },
    {
      "type": "Feature",
      "properties": {
        "name": "Sandane"
      },
      "geometry": {
        "type": "Point",
        "coordinates": [
          6.2189913,
          61.7757259
        ]
      }
    },
    {
      "type": "Feature",
      "properties": {
        "name": "Bano AS Sandane"
      },
      "geometry": {
        "type": "Point",
        "coordinates": [
          6.2006825,
          61.7828083
        ]
      }
    },
    {
      "type": "Feature",
      "properties": {
        "name": "Coop Marked Åheim"
      },
      "geometry": {
        "type": "Point",
        "coordinates": [
          5.5288535,
          62.0371828
        ]
      }
    },
    {
      "type": "Feature",
      "properties": {
        "name": "Joker Skei"
      },
      "geometry": {
        "type": "Point",
        "coordinates": [
          6.482057,
          61.5704075
        ]
      }
    },
    {
      "type": "Feature",
      "properties": {
        "name": "Copp Marked"
      },
      "geometry": {
        "type": "Point",
        "coordinates": [
          6.1119282,
          61.4923675
        ]
      }
    },
    {
      "type": "Feature",
      "properties": {
        "name": "Bunnpris"
      },
      "geometry": {
        "type": "Point",
        "coordinates": [
          5.8973622,
          61.4379211
        ]
      }
    },
    {
      "type": "Feature",
      "properties": {
        "name": "Best/Extra"
      },
      "geometry": {
        "type": "Point",
        "coordinates": [
          5.7176113,
          61.5077947
        ]
      }
    },
    {
      "type": "Feature",
      "properties": {
        "name": "Spar"
      },
      "geometry": {
        "type": "Point",
        "coordinates": [
          5.4610473,
          61.5889738
        ]
      }
    },
    {
      "type": "Feature",
      "properties": {
        "name": "Coop Marked"
      },
      "geometry": {
        "type": "Point",
        "coordinates": [
          6.0265803,
          62.1197607
        ]
      }
    },
    {
      "type": "Feature",
      "properties": {
        "name": "Coop Marked"
      },
      "geometry": {
        "type": "Point",
        "coordinates": [
          5.7568628,
          62.1787191
        ]
      }
    },
    {
      "type": "Feature",
      "properties": {
        "name": "Coop Prix"
      },
      "geometry": {
        "type": "Point",
        "coordinates": [
          7.4479795,
          62.9166399
        ]
      }
    },
    {
      "type": "Feature",
      "properties": {
        "name": "Coop prix"
      },
      "geometry": {
        "type": "Point",
        "coordinates": [
          7.1627748,
          62.9741811
        ]
      }
    },
    {
      "type": "Feature",
      "properties": {
        "name": "Joker"
      },
      "geometry": {
        "type": "Point",
        "coordinates": [
          7.4971101,
          62.586653
        ]
      }
    },
    {
      "type": "Feature",
      "properties": {
        "name": "Tjørvåg"
      },
      "geometry": {
        "type": "Point",
        "coordinates": [
          5.7339567,
          62.2886021
        ]
      }
    },
    {
      "type": "Feature",
      "properties": {
        "name": "Nærbutikken Eidså"
      },
      "geometry": {
        "type": "Point",
        "coordinates": [
          5.6732342,
          62.1202674
        ]
      }
    },
    {
      "type": "Feature",
      "properties": {
        "name": "Rema 1000 Førde"
      },
      "geometry": {
        "type": "Point",
        "coordinates": [
          5.8727878,
          61.4497041
        ]
      }
    },
    {
      "type": "Feature",
      "properties": {
        "name": "Reed Coop Marked"
      },
      "geometry": {
        "type": "Point",
        "coordinates": [
          6.4094496,
          61.7373685
        ]
      }
    },
    {
      "type": "Feature",
      "properties": {
        "name": "Joker Loen"
      },
      "geometry": {
        "type": "Point",
        "coordinates": [
          6.8474382,
          61.8714029
        ]
      }
    },
    {
      "type": "Feature",
      "properties": {
        "name": "Bunnpris Spjelkavik"
      },
      "geometry": {
        "type": "Point",
        "coordinates": [
          6.3623339,
          62.4627669
        ]
      }
    },
    {
      "type": "Feature",
      "properties": {
        "name": "Kiwi Løkkemyra"
      },
      "geometry": {
        "type": "Point",
        "coordinates": [
          7.784307,
          63.1087326
        ]
      }
    },
    {
      "type": "Feature",
      "properties": {
        "name": "Plantasjen"
      },
      "geometry": {
        "type": "Point",
        "coordinates": [
          7.7910608,
          63.1108434
        ]
      }
    },
    {
      "type": "Feature",
      "properties": {
        "name": "Joker Lepsøya"
      },
      "geometry": {
        "type": "Point",
        "coordinates": [
          6.2052584,
          62.6104553
        ]
      }
    },
    {
      "type": "Feature",
      "properties": {
        "name": "Spar Fiskå"
      },
      "geometry": {
        "type": "Point",
        "coordinates": [
          5.5561584,
          62.1002656
        ]
      }
    },
    {
      "type": "Feature",
      "properties": {
        "name": "Stryn Sentrum"
      },
      "geometry": {
        "type": "Point",
        "coordinates": [
          6.7171633,
          61.9036466
        ]
      }
    },
    {
      "type": "Feature",
      "properties": {
        "name": "Joker Ålfoten"
      },
      "geometry": {
        "type": "Point",
        "coordinates": [
          5.6742775,
          61.836887
        ]
      }
    },
    {
      "type": "Feature",
      "properties": {
        "name": "Davik"
      },
      "geometry": {
        "type": "Point",
        "coordinates": [
          5.5416477,
          61.8881306
        ]
      }
    },
    {
      "type": "Feature",
      "properties": {
        "name": "Bunnpris Langøyneset"
      },
      "geometry": {
        "type": "Point",
        "coordinates": [
          7.4997461,
          63.0638013
        ]
      }
    },
    {
      "type": "Feature",
      "properties": {
        "name": "Eurospar Krokane"
      },
      "geometry": {
        "type": "Point",
        "coordinates": [
          5.0644505,
          61.5991305
        ]
      }
    },
    {
      "type": "Feature",
      "properties": {
        "name": "Brattvåg"
      },
      "geometry": {
        "type": "Point",
        "coordinates": [
          6.4440715,
          62.6007724
        ]
      }
    },
    {
      "type": "Feature",
      "properties": {
        "name": "Hørundvåg"
      },
      "geometry": {
        "type": "Point",
        "coordinates": [
          6.0653812,
          62.3483969
        ]
      }
    },
    {
      "type": "Feature",
      "properties": {
        "name": "Coop Prix Frei"
      },
      "geometry": {
        "type": "Point",
        "coordinates": [
          7.7858949,
          63.0383376
        ]
      }
    },
    {
      "type": "Feature",
      "properties": {
        "name": "Coop Marked Batnfjord"
      },
      "geometry": {
        "type": "Point",
        "coordinates": [
          7.6797277,
          62.8938928
        ]
      }
    },
    {
      "type": "Feature",
      "properties": {
        "name": "Sæbø brannstasjon"
      },
      "geometry": {
        "type": "Point",
        "coordinates": [
          6.4757189,
          62.2085492
        ]
      }
    },
    {
      "type": "Feature",
      "properties": {
        "name": "Coop Marked Barstadvik"
      },
      "geometry": {
        "type": "Point",
        "coordinates": [
          6.2665844,
          62.3598294
        ]
      }
    },
    {
      "type": "Feature",
      "properties": {
        "name": "Bunnpris Øydegard"
      },
      "geometry": {
        "type": "Point",
        "coordinates": [
          7.9755914,
          63.0110453
        ]
      }
    },
    {
      "type": "Feature",
      "properties": {
        "name": "Bunnpris Eidsvågen"
      },
      "geometry": {
        "type": "Point",
        "coordinates": [
          8.0632567,
          62.7753674
        ]
      }
    },
    {
      "type": "Feature",
      "properties": {
        "name": "Leikanger"
      },
      "geometry": {
        "type": "Point",
        "coordinates": [
          5.3172326,
          62.1196353
        ]
      }
    },
    {
      "type": "Feature",
      "properties": {
        "name": "Flatraket"
      },
      "geometry": {
        "type": "Point",
        "coordinates": [
          5.2276254,
          61.9762651
        ]
      }
    },
    {
      "type": "Feature",
      "properties": {
        "name": "MIX Måløy"
      },
      "geometry": {
        "type": "Point",
        "coordinates": [
          5.1143664,
          61.9348495
        ]
      }
    },
    {
      "type": "Feature",
      "properties": {
        "name": "Roald"
      },
      "geometry": {
        "type": "Point",
        "coordinates": [
          6.123392,
          62.5808141
        ]
      }
    },
    {
      "type": "Feature",
      "properties": {
        "name": "Bedehusvegen"
      },
      "geometry": {
        "type": "Point",
        "coordinates": [
          6.0495025,
          62.5039727
        ]
      }
    },
    {
      "type": "Feature",
      "properties": {
        "name": "Spar Eidsnes"
      },
      "geometry": {
        "type": "Point",
        "coordinates": [
          6.316731,
          62.4277521
        ]
      }
    },
    {
      "type": "Feature",
      "properties": {
        "name": "Europris/ Coop Extra Dale"
      },
      "geometry": {
        "type": "Point",
        "coordinates": [
          5.3976345,
          61.3583268
        ]
      }
    },
    {
      "type": "Feature",
      "properties": {
        "name": "Spar Sande"
      },
      "geometry": {
        "type": "Point",
        "coordinates": [
          5.7959318,
          61.3262176
        ]
      }
    },
    {
      "type": "Feature",
      "properties": {
        "name": "Coop Extra Sogndal"
      },
      "geometry": {
        "type": "Point",
        "coordinates": [
          7.1050429,
          61.2315344
        ]
      }
    },
    {
      "type": "Feature",
      "properties": {
        "name": "Leikanger"
      },
      "geometry": {
        "type": "Point",
        "coordinates": [
          6.7980373,
          61.1829124
        ]
      }
    },
    {
      "type": "Feature",
      "properties": {
        "name": "Bunker Oil Godøy"
      },
      "geometry": {
        "type": "Point",
        "coordinates": [
          6.0416812,
          62.4830969
        ]
      }
    },
    {
      "type": "Feature",
      "properties": {
        "name": "Coop Marked Lauvstad"
      },
      "geometry": {
        "type": "Point",
        "coordinates": [
          5.9435499,
          62.1642695
        ]
      }
    },
    {
      "type": "Feature",
      "properties": {
        "name": "Ulsteinvik Lampehuset"
      },
      "geometry": {
        "type": "Point",
        "coordinates": [
          5.8515555,
          62.3416369
        ]
      }
    },
    {
      "type": "Feature",
      "properties": {
        "name": "Spar Dimna"
      },
      "geometry": {
        "type": "Point",
        "coordinates": [
          5.8445334,
          62.3159599
        ]
      }
    },
    {
      "type": "Feature",
      "properties": {
        "name": "Felleskjøpet Sunndalsøra"
      },
      "geometry": {
        "type": "Point",
        "coordinates": [
          8.5656452,
          62.6759557
        ]
      }
    },
    {
      "type": "Feature",
      "properties": {
        "name": "Aas Mek. Verksted Vestnes"
      },
      "geometry": {
        "type": "Point",
        "coordinates": [
          7.0791006,
          62.6337499
        ]
      }
    },
    {
      "type": "Feature",
      "properties": {
        "name": "Kleive"
      },
      "geometry": {
        "type": "Point",
        "coordinates": [
          7.6509476,
          62.7981524
        ]
      }
    },
    {
      "type": "Feature",
      "properties": {
        "name": "Pyramiden Gaupne"
      },
      "geometry": {
        "type": "Point",
        "coordinates": [
          7.2953832,
          61.403
        ]
      }
    },
    {
      "type": "Feature",
      "properties": {
        "name": "YX Averøy"
      },
      "geometry": {
        "type": "Point",
        "coordinates": [
          7.4314141,
          63.0093995
        ]
      }
    },
    {
      "type": "Feature",
      "properties": {
        "name": "Dahlehallen"
      },
      "geometry": {
        "type": "Point",
        "coordinates": [
          7.7912378,
          63.1226393
        ]
      }
    },
    {
      "type": "Feature",
      "properties": {
        "name": "Coop Prix Midsund"
      },
      "geometry": {
        "type": "Point",
        "coordinates": [
          6.6733146,
          62.6743108
        ]
      }
    },
    {
      "type": "Feature",
      "properties": {
        "name": "Hjelle Skule"
      },
      "geometry": {
        "type": "Point",
        "coordinates": [
          6.0798812,
          61.9189276
        ]
      }
    },
    {
      "type": "Feature",
      "properties": {
        "name": "Joker Bremanger"
      },
      "geometry": {
        "type": "Point",
        "coordinates": [
          4.9384028,
          61.8377124
        ]
      }
    },
    {
      "type": "Feature",
      "properties": {
        "name": "Spar Kalvåg"
      },
      "geometry": {
        "type": "Point",
        "coordinates": [
          4.8794907,
          61.7669544
        ]
      }
    },
    {
      "type": "Feature",
      "properties": {
        "name": "Joker Torvikbukt"
      },
      "geometry": {
        "type": "Point",
        "coordinates": [
          7.8568661,
          62.942937
        ]
      }
    },
    {
      "type": "Feature",
      "properties": {
        "name": "YX Dale"
      },
      "geometry": {
        "type": "Point",
        "coordinates": [
          5.402146,
          61.3641786
        ]
      }
    },
    {
      "type": "Feature",
      "properties": {
        "name": "Kristiansund Sykehus"
      },
      "geometry": {
        "type": "Point",
        "coordinates": [
          7.7226269,
          63.1086137
        ]
      }
    },
    {
      "type": "Feature",
      "properties": {
        "name": "Bremanger Brannstasjon"
      },
      "geometry": {
        "type": "Point",
        "coordinates": [
          4.9916929,
          61.8386099
        ]
      }
    },
    {
      "type": "Feature",
      "properties": {
        "name": "Scandic Parken"
      },
      "geometry": {
        "type": "Point",
        "coordinates": [
          6.1572522,
          62.4740601
        ]
      }
    },
    {
      "type": "Feature",
      "properties": {
        "name": "Førde Liavegen"
      },
      "geometry": {
        "type": "Point",
        "coordinates": [
          5.8315582,
          61.4514631
        ]
      }
    },
    {
      "type": "Feature",
      "properties": {
        "name": "Førde Utstillingsplasen"
      },
      "geometry": {
        "type": "Point",
        "coordinates": [
          5.8644678,
          61.4532131
        ]
      }
    },
    {
      "type": "Feature",
      "properties": {
        "name": "Bigset Barnehage"
      },
      "geometry": {
        "type": "Point",
        "coordinates": [
          5.9614419,
          62.3555441
        ]
      }
    },
    {
      "type": "Feature",
      "properties": {
        "name": "Bunnpris Straumgjerde"
      },
      "geometry": {
        "type": "Point",
        "coordinates": [
          6.595133,
          62.332887
        ]
      }
    },
    {
      "type": "Feature",
      "properties": {
        "name": "Slinningen Barnehage"
      },
      "geometry": {
        "type": "Point",
        "coordinates": [
          6.1501387,
          62.4580113
        ]
      }
    },
    {
      "type": "Feature",
      "properties": {
        "name": "Bergmo"
      },
      "geometry": {
        "type": "Point",
        "coordinates": [
          7.2243066,
          62.7464009
        ]
      }
    },
    {
      "type": "Feature",
      "properties": {
        "name": "Elkjøp Kaupanger"
      },
      "geometry": {
        "type": "Point",
        "coordinates": [
          7.2226001,
          61.1943865
        ]
      }
    },
    {
      "type": "Feature",
      "properties": {
        "name": "Bunnpris Aukra"
      },
      "geometry": {
        "type": "Point",
        "coordinates": [
          6.8905206,
          62.8054819
        ]
      }
    },
    {
      "type": "Feature",
      "properties": {
        "name": "Rugsund"
      },
      "geometry": {
        "type": "Point",
        "coordinates": [
          5.3130237,
          61.8717361
        ]
      }
    },
    {
      "type": "Feature",
      "properties": {
        "name": "Sogn Treningssenter"
      },
      "geometry": {
        "type": "Point",
        "coordinates": [
          7.0840955,
          61.2294081
        ]
      }
    },
    {
      "type": "Feature",
      "properties": {
        "name": "Coop Extra Bruhagen"
      },
      "geometry": {
        "type": "Point",
        "coordinates": [
          7.6339586,
          63.052128
        ]
      }
    },
    {
      "type": "Feature",
      "properties": {
        "name": "Coop Marked Bådalen"
      },
      "geometry": {
        "type": "Point",
        "coordinates": [
          7.5664757,
          63.0086434
        ]
      }
    },
    {
      "type": "Feature",
      "properties": {
        "name": "Joker Hjelledalen"
      },
      "geometry": {
        "type": "Point",
        "coordinates": [
          7.1691922,
          61.9189214
        ]
      }
    },
    {
      "type": "Feature",
      "properties": {
        "name": "Bunnpris Skjåk"
      },
      "geometry": {
        "type": "Point",
        "coordinates": [
          8.2633647,
          61.8850371
        ]
      }
    },
    {
      "type": "Feature",
      "properties": {
        "name": "Otta"
      },
      "geometry": {
        "type": "Point",
        "coordinates": [
          9.5390166,
          61.7717662
        ]
      }
    },
    {
      "type": "Feature",
      "properties": {
        "name": "Brannstasjon Godøy"
      },
      "geometry": {
        "type": "Point",
        "coordinates": [
          6.0390205,
          62.475507
        ]
      }
    },
    {
      "type": "Feature",
      "properties": {
        "name": "Gausdal Landhandleri"
      },
      "geometry": {
        "type": "Point",
        "coordinates": [
          8.5766298,
          61.8409498
        ]
      }
    },
    {
      "type": "Feature",
      "properties": {
        "name": "YX Vågå"
      },
      "geometry": {
        "type": "Point",
        "coordinates": [
          9.1027868,
          61.8695263
        ]
      }
    },
    {
      "type": "Feature",
      "properties": {
        "name": "Coop Marked Dovre"
      },
      "geometry": {
        "type": "Point",
        "coordinates": [
          9.2487858,
          61.9869994
        ]
      }
    },
    {
      "type": "Feature",
      "properties": {
        "name": "Kiwi Sunndalsøra"
      },
      "geometry": {
        "type": "Point",
        "coordinates": [
          8.564736,
          62.6731708
        ]
      }
    },
    {
      "type": "Feature",
      "properties": {
        "name": "Sunndalsøra"
      },
      "geometry": {
        "type": "Point",
        "coordinates": [
          8.5706115,
          62.6716597
        ]
      }
    },
    {
      "type": "Feature",
      "properties": {
        "name": "Bunnpris Bjorli"
      },
      "geometry": {
        "type": "Point",
        "coordinates": [
          8.2079582,
          62.259072
        ]
      }
    },
    {
      "type": "Feature",
      "properties": {
        "name": "Coop Marked Lesjaverk"
      },
      "geometry": {
        "type": "Point",
        "coordinates": [
          8.535952,
          62.1933006
        ]
      }
    },
    {
      "type": "Feature",
      "properties": {
        "name": "Joker Lesja"
      },
      "geometry": {
        "type": "Point",
        "coordinates": [
          8.8608476,
          62.1182116
        ]
      }
    },
    {
      "type": "Feature",
      "properties": {
        "name": "Coop Marked Bruvoll"
      },
      "geometry": {
        "type": "Point",
        "coordinates": [
          8.0932007,
          61.9144007
        ]
      }
    },
    {
      "type": "Feature",
      "properties": {
        "name": "Karihola Barnehage"
      },
      "geometry": {
        "type": "Point",
        "coordinates": [
          7.7097504,
          63.1249909
        ]
      }
    },
    {
      "type": "Feature",
      "properties": {
        "name": "Valldal Sentrum"
      },
      "geometry": {
        "type": "Point",
        "coordinates": [
          7.2608165,
          62.2975731
        ]
      }
    },
    {
      "type": "Feature",
      "properties": {
        "name": "Spar Valldal"
      },
      "geometry": {
        "type": "Point",
        "coordinates": [
          7.2645497,
          62.2981669
        ]
      }
    },
    {
      "type": "Feature",
      "properties": {
        "name": "Coop Marked Leikong"
      },
      "geometry": {
        "type": "Point",
        "coordinates": [
          5.7817005,
          62.2477149
        ]
      }
    },
    {
      "type": "Feature",
      "properties": {
        "name": "Coop Marked Gjerdsvika"
      },
      "geometry": {
        "type": "Point",
        "coordinates": [
          5.5847295,
          62.2582081
        ]
      }
    },
    {
      "type": "Feature",
      "properties": {
        "name": "Nerøyvalen"
      },
      "geometry": {
        "type": "Point",
        "coordinates": [
          5.6827521,
          62.3393971
        ]
      }
    },
    {
      "type": "Feature",
      "properties": {
        "name": "Ulsteinvik Sentrum"
      },
      "geometry": {
        "type": "Point",
        "coordinates": [
          5.8452676,
          62.3433255
        ]
      }
    },
    {
      "type": "Feature",
      "properties": {
        "name": "Coop Marked Eresfjord"
      },
      "geometry": {
        "type": "Point",
        "coordinates": [
          8.1191702,
          62.6797592
        ]
      }
    },
    {
      "type": "Feature",
      "properties": {
        "name": "Ålvundfjord"
      },
      "geometry": {
        "type": "Point",
        "coordinates": [
          8.520203,
          62.851761
        ]
      }
    },
    {
      "type": "Feature",
      "properties": {
        "name": "Joker Kyrkjebø"
      },
      "geometry": {
        "type": "Point",
        "coordinates": [
          5.936255,
          61.1646056
        ]
      }
    },
    {
      "type": "Feature",
      "properties": {
        "name": "Høyanger"
      },
      "geometry": {
        "type": "Point",
        "coordinates": [
          6.0927761,
          61.2272481
        ]
      }
    },
    {
      "type": "Feature",
      "properties": {
        "name": "Spar Hylkje"
      },
      "geometry": {
        "type": "Point",
        "coordinates": [
          5.3475458,
          60.5088699
        ]
      }
    },
    {
      "type": "Feature",
      "properties": {
        "name": "Rema 1000 Eidsvåg"
      },
      "geometry": {
        "type": "Point",
        "coordinates": [
          5.32338,
          60.439026
        ]
      }
    },
    {
      "type": "Feature",
      "properties": {
        "name": "Coop Extra Nyborg"
      },
      "geometry": {
        "type": "Point",
        "coordinates": [
          5.3360352,
          60.4740283
        ]
      }
    },
    {
      "type": "Feature",
      "properties": {
        "name": "Meny Industriveien"
      },
      "geometry": {
        "type": "Point",
        "coordinates": [
          5.4501898,
          60.204701
        ]
      }
    },
    {
      "type": "Feature",
      "properties": {
        "name": "Jysk Nesttunn"
      },
      "geometry": {
        "type": "Point",
        "coordinates": [
          5.3719852,
          60.3214618
        ]
      }
    },
    {
      "type": "Feature",
      "properties": {
        "name": "Coop Extra Fana"
      },
      "geometry": {
        "type": "Point",
        "coordinates": [
          5.3372858,
          60.2576926
        ]
      }
    },
    {
      "type": "Feature",
      "properties": {
        "name": "Bunnpris Bønes"
      },
      "geometry": {
        "type": "Point",
        "coordinates": [
          5.3016101,
          60.3332202
        ]
      }
    },
    {
      "type": "Feature",
      "properties": {
        "name": "Kiwi Sørås"
      },
      "geometry": {
        "type": "Point",
        "coordinates": [
          5.3177316,
          60.2972851
        ]
      }
    },
    {
      "type": "Feature",
      "properties": {
        "name": "Rema 1000 Godvik"
      },
      "geometry": {
        "type": "Point",
        "coordinates": [
          5.1921191,
          60.369875
        ]
      }
    },
    {
      "type": "Feature",
      "properties": {
        "name": "Eurospar Isdalstø"
      },
      "geometry": {
        "type": "Point",
        "coordinates": [
          5.2708267,
          60.5558446
        ]
      }
    },
    {
      "type": "Feature",
      "properties": {
        "name": "Coop Extra Lone"
      },
      "geometry": {
        "type": "Point",
        "coordinates": [
          5.4576425,
          60.3742824
        ]
      }
    },
    {
      "type": "Feature",
      "properties": {
        "name": "Rema 1000 Morgnstad"
      },
      "geometry": {
        "type": "Point",
        "coordinates": [
          5.0097521,
          60.7976708
        ]
      }
    },
    {
      "type": "Feature",
      "properties": {
        "name": "Joker Austrheim"
      },
      "geometry": {
        "type": "Point",
        "coordinates": [
          4.9156825,
          60.7649568
        ]
      }
    },
    {
      "type": "Feature",
      "properties": {
        "name": "Joker Hanøy"
      },
      "geometry": {
        "type": "Point",
        "coordinates": [
          5.0915513,
          60.4494415
        ]
      }
    },
    {
      "type": "Feature",
      "properties": {
        "name": "Rema 1000 Sagvåg"
      },
      "geometry": {
        "type": "Point",
        "coordinates": [
          5.3964241,
          59.7797115
        ]
      }
    },
    {
      "type": "Feature",
      "properties": {
        "name": "Fitjar kommune"
      },
      "geometry": {
        "type": "Point",
        "coordinates": [
          5.3175624,
          59.9188686
        ]
      }
    },
    {
      "type": "Feature",
      "properties": {
        "name": "Rema 1000 Fitjar"
      },
      "geometry": {
        "type": "Point",
        "coordinates": [
          5.326043,
          59.9195178
        ]
      }
    },
    {
      "type": "Feature",
      "properties": {
        "name": "Kiwi Haus"
      },
      "geometry": {
        "type": "Point",
        "coordinates": [
          5.4959508,
          60.4527853
        ]
      }
    },
    {
      "type": "Feature",
      "properties": {
        "name": "Stordal"
      },
      "geometry": {
        "type": "Point",
        "coordinates": [
          6.9872505,
          62.3821715
        ]
      }
    },
    {
      "type": "Feature",
      "properties": {
        "name": "Strushamnsveien 53"
      },
      "geometry": {
        "type": "Point",
        "coordinates": [
          5.1907181,
          60.4055397
        ]
      }
    },
    {
      "type": "Feature",
      "properties": {
        "name": "Coop Marked Askvoll"
      },
      "geometry": {
        "type": "Point",
        "coordinates": [
          5.0607057,
          61.3465955
        ]
      }
    },
    {
      "type": "Feature",
      "properties": {
        "name": "Bunnpris Lavik"
      },
      "geometry": {
        "type": "Point",
        "coordinates": [
          5.5125039,
          61.1032388
        ]
      }
    },
    {
      "type": "Feature",
      "properties": {
        "name": "Joker Haugsvær"
      },
      "geometry": {
        "type": "Point",
        "coordinates": [
          5.5191865,
          60.8968604
        ]
      }
    },
    {
      "type": "Feature",
      "properties": {
        "name": "Fyllingsdalen"
      },
      "geometry": {
        "type": "Point",
        "coordinates": [
          5.27859,
          60.3495805
        ]
      }
    },
    {
      "type": "Feature",
      "properties": {
        "name": "Amfi Voss"
      },
      "geometry": {
        "type": "Point",
        "coordinates": [
          6.4343705,
          60.6291556
        ]
      }
    },
    {
      "type": "Feature",
      "properties": {
        "name": "Coop Extra Skulestadsmo"
      },
      "geometry": {
        "type": "Point",
        "coordinates": [
          6.4362004,
          60.65516
        ]
      }
    },
    {
      "type": "Feature",
      "properties": {
        "name": "Rema 1000 Skulestadsmo"
      },
      "geometry": {
        "type": "Point",
        "coordinates": [
          6.4367093,
          60.6596431
        ]
      }
    },
    {
      "type": "Feature",
      "properties": {
        "name": "Coop Marked Ålvik"
      },
      "geometry": {
        "type": "Point",
        "coordinates": [
          6.4317754,
          60.4305009
        ]
      }
    },
    {
      "type": "Feature",
      "properties": {
        "name": "Esso Norheimsund"
      },
      "geometry": {
        "type": "Point",
        "coordinates": [
          6.1440321,
          60.3725223
        ]
      }
    },
    {
      "type": "Feature",
      "properties": {
        "name": "Extra Tysnes"
      },
      "geometry": {
        "type": "Point",
        "coordinates": [
          5.5225343,
          60.0425165
        ]
      }
    },
    {
      "type": "Feature",
      "properties": {
        "name": "Spar Tysnes"
      },
      "geometry": {
        "type": "Point",
        "coordinates": [
          5.521931,
          60.0434328
        ]
      }
    },
    {
      "type": "Feature",
      "properties": {
        "name": "Kiwi Sagvåg"
      },
      "geometry": {
        "type": "Point",
        "coordinates": [
          5.3931613,
          59.7748435
        ]
      }
    },
    {
      "type": "Feature",
      "properties": {
        "name": "Joker Ølve"
      },
      "geometry": {
        "type": "Point",
        "coordinates": [
          5.8056529,
          60.0099985
        ]
      }
    },
    {
      "type": "Feature",
      "properties": {
        "name": "Spar Hatlestrand"
      },
      "geometry": {
        "type": "Point",
        "coordinates": [
          5.9144135,
          60.060864
        ]
      }
    },
    {
      "type": "Feature",
      "properties": {
        "name": "Coop Extra Førde"
      },
      "geometry": {
        "type": "Point",
        "coordinates": [
          5.8876088,
          61.4487144
        ]
      }
    },
    {
      "type": "Feature",
      "properties": {
        "name": "Rema 1000 Morvik"
      },
      "geometry": {
        "type": "Point",
        "coordinates": [
          5.2651435,
          60.4745824
        ]
      }
    },
    {
      "type": "Feature",
      "properties": {
        "name": "Extra Haukedalen"
      },
      "geometry": {
        "type": "Point",
        "coordinates": [
          5.2946952,
          60.4632973
        ]
      }
    },
    {
      "type": "Feature",
      "properties": {
        "name": "Extra Alpetun"
      },
      "geometry": {
        "type": "Point",
        "coordinates": [
          5.3464258,
          60.2976784
        ]
      }
    },
    {
      "type": "Feature",
      "properties": {
        "name": "Spar Haga"
      },
      "geometry": {
        "type": "Point",
        "coordinates": [
          5.5187838,
          59.8033261
        ]
      }
    },
    {
      "type": "Feature",
      "properties": {
        "name": "Rema 1000 Kjøtteinsvegen"
      },
      "geometry": {
        "type": "Point",
        "coordinates": [
          5.4955719,
          59.7731888
        ]
      }
    },
    {
      "type": "Feature",
      "properties": {
        "name": "Extra Karmsundgata"
      },
      "geometry": {
        "type": "Point",
        "coordinates": [
          5.2893839,
          59.4027304
        ]
      }
    },
    {
      "type": "Feature",
      "properties": {
        "name": "Joker Vossestrand"
      },
      "geometry": {
        "type": "Point",
        "coordinates": [
          6.5094967,
          60.7921414
        ]
      }
    },
    {
      "type": "Feature",
      "properties": {
        "name": "Årim Moa nord"
      },
      "geometry": {
        "type": "Point",
        "coordinates": [
          6.3516092,
          62.4678919
        ]
      }
    },
    {
      "type": "Feature",
      "properties": {
        "name": "Joker Hundvin"
      },
      "geometry": {
        "type": "Point",
        "coordinates": [
          5.2293987,
          60.6843341
        ]
      }
    },
    {
      "type": "Feature",
      "properties": {
        "name": "Rema Stokkenes"
      },
      "geometry": {
        "type": "Point",
        "coordinates": [
          6.0025296,
          61.9103059
        ]
      }
    },
    {
      "type": "Feature",
      "properties": {
        "name": "Cirkle K Moa"
      },
      "geometry": {
        "type": "Point",
        "coordinates": [
          6.3482882,
          62.464781
        ]
      }
    },
    {
      "type": "Feature",
      "properties": {
        "name": "Årim Aksla"
      },
      "geometry": {
        "type": "Point",
        "coordinates": [
          6.1877119,
          62.474156
        ]
      }
    },
    {
      "type": "Feature",
      "properties": {
        "name": "Bingsa Miljøpark"
      },
      "geometry": {
        "type": "Point",
        "coordinates": [
          6.3857338,
          62.4812168
        ]
      }
    },
    {
      "type": "Feature",
      "properties": {
        "name": "Rema 1000 Elnesvågen"
      },
      "geometry": {
        "type": "Point",
        "coordinates": [
          7.1668367,
          62.8542957
        ]
      }
    },
    {
      "type": "Feature",
      "properties": {
        "name": "Arefjordvegen"
      },
      "geometry": {
        "type": "Point",
        "coordinates": [
          5.1507321,
          60.3676911
        ]
      }
    },
    {
      "type": "Feature",
      "properties": {
        "name": "Sund kommune"
      },
      "geometry": {
        "type": "Point",
        "coordinates": [
          5.0727199,
          60.2715383
        ]
      }
    },
    {
      "type": "Feature",
      "properties": {
        "name": "NGIR Kjevikdalen"
      },
      "geometry": {
        "type": "Point",
        "coordinates": [
          5.2578497,
          60.6501136
        ]
      }
    },
    {
      "type": "Feature",
      "properties": {
        "name": "NGIR Mjåtveit ( Frekhaug )"
      },
      "geometry": {
        "type": "Point",
        "coordinates": [
          5.2081842,
          60.5163921
        ]
      }
    },
    {
      "type": "Feature",
      "properties": {
        "name": "Dalekvam"
      },
      "geometry": {
        "type": "Point",
        "coordinates": [
          5.8193549,
          60.5902154
        ]
      }
    },
    {
      "type": "Feature",
      "properties": {
        "name": "Rema 1000 Ågotnes"
      },
      "geometry": {
        "type": "Point",
        "coordinates": [
          4.9991628,
          60.4037267
        ]
      }
    },
    {
      "type": "Feature",
      "properties": {
        "name": "Bunnpris Buena"
      },
      "geometry": {
        "type": "Point",
        "coordinates": [
          5.385061,
          60.2186341
        ]
      }
    },
    {
      "type": "Feature",
      "properties": {
        "name": "Lysekloster"
      },
      "geometry": {
        "type": "Point",
        "coordinates": [
          5.3866971,
          60.2098408
        ]
      }
    },
    {
      "type": "Feature",
      "properties": {
        "name": "Eikelandsosen"
      },
      "geometry": {
        "type": "Point",
        "coordinates": [
          5.7491193,
          60.2404505
        ]
      }
    },
    {
      "type": "Feature",
      "properties": {
        "name": "Bjørnafjorden"
      },
      "geometry": {
        "type": "Point",
        "coordinates": [
          5.3819471,
          60.2223953
        ]
      }
    },
    {
      "type": "Feature",
      "properties": {
        "name": "Spar Skåredalen"
      },
      "geometry": {
        "type": "Point",
        "coordinates": [
          5.3284332,
          59.4091555
        ]
      }
    },
    {
      "type": "Feature",
      "properties": {
        "name": "Bunnpris Montana"
      },
      "geometry": {
        "type": "Point",
        "coordinates": [
          5.367686,
          60.3703181
        ]
      }
    },
    {
      "type": "Feature",
      "properties": {
        "name": "Knarvik Senter"
      },
      "geometry": {
        "type": "Point",
        "coordinates": [
          5.2852802,
          60.5484562
        ]
      }
    },
    {
      "type": "Feature",
      "properties": {
        "name": "Kiwi Ulset"
      },
      "geometry": {
        "type": "Point",
        "coordinates": [
          5.3046504,
          60.4635774
        ]
      }
    },
    {
      "type": "Feature",
      "properties": {
        "name": "Nesttunvegen"
      },
      "geometry": {
        "type": "Point",
        "coordinates": [
          5.3506033,
          60.3217192
        ]
      }
    },
    {
      "type": "Feature",
      "properties": {
        "name": "Vestre Borettslag"
      },
      "geometry": {
        "type": "Point",
        "coordinates": [
          5.224885,
          60.3626838
        ]
      }
    },
    {
      "type": "Feature",
      "properties": {
        "name": "Vadmyra borettslag"
      },
      "geometry": {
        "type": "Point",
        "coordinates": [
          5.2307214,
          60.3605942
        ]
      }
    },
    {
      "type": "Feature",
      "properties": {
        "name": "Søvikdalen"
      },
      "geometry": {
        "type": "Point",
        "coordinates": [
          5.2924506,
          60.3116897
        ]
      }
    },
    {
      "type": "Feature",
      "properties": {
        "name": "Halhjemsmarka"
      },
      "geometry": {
        "type": "Point",
        "coordinates": [
          5.4384309,
          60.1443063
        ]
      }
    },
    {
      "type": "Feature",
      "properties": {
        "name": "Skogsvåg"
      },
      "geometry": {
        "type": "Point",
        "coordinates": [
          5.0650142,
          60.2454123
        ]
      }
    },
    {
      "type": "Feature",
      "properties": {
        "name": "Fjell"
      },
      "geometry": {
        "type": "Point",
        "coordinates": [
          5.0777375,
          60.3349543
        ]
      }
    },
    {
      "type": "Feature",
      "properties": {
        "name": "Bunnpris Hollingen"
      },
      "geometry": {
        "type": "Point",
        "coordinates": [
          6.9927719,
          62.7796412
        ]
      }
    },
    {
      "type": "Feature",
      "properties": {
        "name": "Cecilienfryd fotballbane"
      },
      "geometry": {
        "type": "Point",
        "coordinates": [
          7.1344286,
          62.7402284
        ]
      }
    },
    {
      "type": "Feature",
      "properties": {
        "name": "Åndalsnes brannstasjon"
      },
      "geometry": {
        "type": "Point",
        "coordinates": [
          7.6786628,
          62.5603772
        ]
      }
    },
    {
      "type": "Feature",
      "properties": {
        "name": "Langevåg"
      },
      "geometry": {
        "type": "Point",
        "coordinates": [
          6.1939888,
          62.4419589
        ]
      }
    },
    {
      "type": "Feature",
      "properties": {
        "name": "Stranda Storgata"
      },
      "geometry": {
        "type": "Point",
        "coordinates": [
          6.9375317,
          62.3087717
        ]
      }
    },
    {
      "type": "Feature",
      "properties": {
        "name": "Måndalen"
      },
      "geometry": {
        "type": "Point",
        "coordinates": [
          7.4421388,
          62.5342941
        ]
      }
    },
    {
      "type": "Feature",
      "properties": {
        "name": "Svingen, E136"
      },
      "geometry": {
        "type": "Point",
        "coordinates": [
          7.6753442,
          62.5526667
        ]
      }
    },
    {
      "type": "Feature",
      "properties": {
        "name": "Kalvåg"
      },
      "geometry": {
        "type": "Point",
        "coordinates": [
          4.8747247,
          61.766766
        ]
      }
    },
    {
      "type": "Feature",
      "properties": {
        "name": "Rema 1000 Skogsvåg"
      },
      "geometry": {
        "type": "Point",
        "coordinates": [
          5.0703055,
          60.2700749
        ]
      }
    },
    {
      "type": "Feature",
      "properties": {
        "name": "Haga"
      },
      "geometry": {
        "type": "Point",
        "coordinates": [
          5.7647117,
          60.3795446
        ]
      }
    },
    {
      "type": "Feature",
      "properties": {
        "name": "Tysse"
      },
      "geometry": {
        "type": "Point",
        "coordinates": [
          5.765895,
          60.3926985
        ]
      }
    },
    {
      "type": "Feature",
      "properties": {
        "name": "Sandslivegen"
      },
      "geometry": {
        "type": "Point",
        "coordinates": [
          5.2804239,
          60.309248
        ]
      }
    },
    {
      "type": "Feature",
      "properties": {
        "name": "Barliveien"
      },
      "geometry": {
        "type": "Point",
        "coordinates": [
          5.2785622,
          60.3523305
        ]
      }
    },
    {
      "type": "Feature",
      "properties": {
        "name": "Sikthaugen terrasse"
      },
      "geometry": {
        "type": "Point",
        "coordinates": [
          5.3006048,
          60.3592605
        ]
      }
    },
    {
      "type": "Feature",
      "properties": {
        "name": "Janaveien"
      },
      "geometry": {
        "type": "Point",
        "coordinates": [
          5.1840679,
          60.3683952
        ]
      }
    },
    {
      "type": "Feature",
      "properties": {
        "name": "Rådalslien"
      },
      "geometry": {
        "type": "Point",
        "coordinates": [
          5.325741,
          60.2927096
        ]
      }
    },
    {
      "type": "Feature",
      "properties": {
        "name": "Dag Hammarskjölds vei 1"
      },
      "geometry": {
        "type": "Point",
        "coordinates": [
          5.2927429,
          60.3552429
        ]
      }
    },
    {
      "type": "Feature",
      "properties": {
        "name": "Mittet"
      },
      "geometry": {
        "type": "Point",
        "coordinates": [
          7.6955005,
          62.7001077
        ]
      }
    },
    {
      "type": "Feature",
      "properties": {
        "name": "Husnes Storsenter"
      },
      "geometry": {
        "type": "Point",
        "coordinates": [
          5.7573082,
          59.8614106
        ]
      }
    },
    {
      "type": "Feature",
      "properties": {
        "name": "Rema 1000 Vie"
      },
      "geometry": {
        "type": "Point",
        "coordinates": [
          5.8907607,
          61.4589575
        ]
      }
    },
    {
      "type": "Feature",
      "properties": {
        "name": "Extra Tingvoll"
      },
      "geometry": {
        "type": "Point",
        "coordinates": [
          8.2074197,
          62.9098108
        ]
      }
    },
    {
      "type": "Feature",
      "properties": {
        "name": "Bjørndalsskogen"
      },
      "geometry": {
        "type": "Point",
        "coordinates": [
          5.2423023,
          60.345531
        ]
      }
    },
    {
      "type": "Feature",
      "properties": {
        "name": "Kråkenesdalen"
      },
      "geometry": {
        "type": "Point",
        "coordinates": [
          5.3164161,
          60.3348414
        ]
      }
    },
    {
      "type": "Feature",
      "properties": {
        "name": "Gullstølstien"
      },
      "geometry": {
        "type": "Point",
        "coordinates": [
          5.3107451,
          60.3365509
        ]
      }
    },
    {
      "type": "Feature",
      "properties": {
        "name": "Kravkåsslia"
      },
      "geometry": {
        "type": "Point",
        "coordinates": [
          5.3710065,
          60.4599316
        ]
      }
    },
    {
      "type": "Feature",
      "properties": {
        "name": "Kidsa Breistein"
      },
      "geometry": {
        "type": "Point",
        "coordinates": [
          5.3845859,
          60.4914227
        ]
      }
    },
    {
      "type": "Feature",
      "properties": {
        "name": "Nordgardsleitet"
      },
      "geometry": {
        "type": "Point",
        "coordinates": [
          5.2628076,
          60.4927403
        ]
      }
    },
    {
      "type": "Feature",
      "properties": {
        "name": "Heiane"
      },
      "geometry": {
        "type": "Point",
        "coordinates": [
          5.445154,
          59.7627891
        ]
      }
    },
    {
      "type": "Feature",
      "properties": {
        "name": "Fitjar"
      },
      "geometry": {
        "type": "Point",
        "coordinates": [
          5.3229969,
          59.8461412
        ]
      }
    },
    {
      "type": "Feature",
      "properties": {
        "name": "Bømlo"
      },
      "geometry": {
        "type": "Point",
        "coordinates": [
          5.2095621,
          59.7959016
        ]
      }
    },
    {
      "type": "Feature",
      "properties": {
        "name": "Husnes"
      },
      "geometry": {
        "type": "Point",
        "coordinates": [
          5.7727422,
          59.8767577
        ]
      }
    },
    {
      "type": "Feature",
      "properties": {
        "name": "Frekhaug"
      },
      "geometry": {
        "type": "Point",
        "coordinates": [
          5.2402725,
          60.5193925
        ]
      }
    },
    {
      "type": "Feature",
      "properties": {
        "name": "Sandbrogaten"
      },
      "geometry": {
        "type": "Point",
        "coordinates": [
          5.3220229,
          60.4000572
        ]
      }
    },
    {
      "type": "Feature",
      "properties": {
        "name": "Austevoll SIM"
      },
      "geometry": {
        "type": "Point",
        "coordinates": [
          5.2438016,
          60.0727617
        ]
      }
    },
    {
      "type": "Feature",
      "properties": {
        "name": "Tysnes SIM"
      },
      "geometry": {
        "type": "Point",
        "coordinates": [
          5.5078227,
          60.0191434
        ]
      }
    },
    {
      "type": "Feature",
      "properties": {
        "name": "Extra Ulset"
      },
      "geometry": {
        "type": "Point",
        "coordinates": [
          5.3163164,
          60.462898
        ]
      }
    },
    {
      "type": "Feature",
      "properties": {
        "name": "Rema 1000 Toppe"
      },
      "geometry": {
        "type": "Point",
        "coordinates": [
          5.2683161,
          60.4867069
        ]
      }
    },
    {
      "type": "Feature",
      "properties": {
        "name": "Amalie skrams vei"
      },
      "geometry": {
        "type": "Point",
        "coordinates": [
          5.3218772,
          60.4149506
        ]
      }
    },
    {
      "type": "Feature",
      "properties": {
        "name": "Aurdalslia"
      },
      "geometry": {
        "type": "Point",
        "coordinates": [
          5.281595,
          60.3066305
        ]
      }
    },
    {
      "type": "Feature",
      "properties": {
        "name": "Breiviken"
      },
      "geometry": {
        "type": "Point",
        "coordinates": [
          5.2997773,
          60.421591
        ]
      }
    },
    {
      "type": "Feature",
      "properties": {
        "name": "Bjørgelien"
      },
      "geometry": {
        "type": "Point",
        "coordinates": [
          5.2510754,
          60.3370801
        ]
      }
    },
    {
      "type": "Feature",
      "properties": {
        "name": "Mulesvingen"
      },
      "geometry": {
        "type": "Point",
        "coordinates": [
          5.3305859,
          60.4049216
        ]
      }
    },
    {
      "type": "Feature",
      "properties": {
        "name": "Vindharpevegen"
      },
      "geometry": {
        "type": "Point",
        "coordinates": [
          5.3095268,
          60.2995472
        ]
      }
    },
    {
      "type": "Feature",
      "properties": {
        "name": "Sveio"
      },
      "geometry": {
        "type": "Point",
        "coordinates": [
          5.3664356,
          59.5491454
        ]
      }
    },
    {
      "type": "Feature",
      "properties": {
        "name": "Os Rådhus"
      },
      "geometry": {
        "type": "Point",
        "coordinates": [
          5.4684013,
          60.1849326
        ]
      }
    },
    {
      "type": "Feature",
      "properties": {
        "name": "St. Olavs vei"
      },
      "geometry": {
        "type": "Point",
        "coordinates": [
          5.3526028,
          60.3722624
        ]
      }
    },
    {
      "type": "Feature",
      "properties": {
        "name": "Lægdesvingen"
      },
      "geometry": {
        "type": "Point",
        "coordinates": [
          5.372961,
          60.3673713
        ]
      }
    },
    {
      "type": "Feature",
      "properties": {
        "name": "Mannsverk"
      },
      "geometry": {
        "type": "Point",
        "coordinates": [
          5.3681591,
          60.3540619
        ]
      }
    },
    {
      "type": "Feature",
      "properties": {
        "name": "Nordre Nattlandsfjellet"
      },
      "geometry": {
        "type": "Point",
        "coordinates": [
          5.3728977,
          60.3487411
        ]
      }
    },
    {
      "type": "Feature",
      "properties": {
        "name": "Trolldalen"
      },
      "geometry": {
        "type": "Point",
        "coordinates": [
          5.2914466,
          60.4431631
        ]
      }
    },
    {
      "type": "Feature",
      "properties": {
        "name": "Karlsmarka"
      },
      "geometry": {
        "type": "Point",
        "coordinates": [
          5.2790982,
          60.3135308
        ]
      }
    },
    {
      "type": "Feature",
      "properties": {
        "name": "Fossane"
      },
      "geometry": {
        "type": "Point",
        "coordinates": [
          5.3493886,
          60.4625107
        ]
      }
    },
    {
      "type": "Feature",
      "properties": {
        "name": "Kiwi Hundvåg"
      },
      "geometry": {
        "type": "Point",
        "coordinates": [
          5.7421872,
          59.0010188
        ]
      }
    },
    {
      "type": "Feature",
      "properties": {
        "name": "Bryggen Senter Hommersåk"
      },
      "geometry": {
        "type": "Point",
        "coordinates": [
          5.8487046,
          58.9295658
        ]
      }
    },
    {
      "type": "Feature",
      "properties": {
        "name": "Rema Hundvåg"
      },
      "geometry": {
        "type": "Point",
        "coordinates": [
          5.7287687,
          58.9932622
        ]
      }
    },
    {
      "type": "Feature",
      "properties": {
        "name": "Rema Tasta"
      },
      "geometry": {
        "type": "Point",
        "coordinates": [
          5.6854915,
          58.983402
        ]
      }
    },
    {
      "type": "Feature",
      "properties": {
        "name": "Meny Stokka"
      },
      "geometry": {
        "type": "Point",
        "coordinates": [
          5.7018985,
          58.9640952
        ]
      }
    },
    {
      "type": "Feature",
      "properties": {
        "name": "Rema Kvernevik"
      },
      "geometry": {
        "type": "Point",
        "coordinates": [
          5.6118324,
          58.9653927
        ]
      }
    },
    {
      "type": "Feature",
      "properties": {
        "name": "Extra Madla"
      },
      "geometry": {
        "type": "Point",
        "coordinates": [
          5.6558768,
          58.9518469
        ]
      }
    },
    {
      "type": "Feature",
      "properties": {
        "name": "Tjensvoll"
      },
      "geometry": {
        "type": "Point",
        "coordinates": [
          5.6977003,
          58.9502803
        ]
      }
    },
    {
      "type": "Feature",
      "properties": {
        "name": "Boganesveien"
      },
      "geometry": {
        "type": "Point",
        "coordinates": [
          5.7246523,
          58.9182117
        ]
      }
    },
    {
      "type": "Feature",
      "properties": {
        "name": "Elvebakken"
      },
      "geometry": {
        "type": "Point",
        "coordinates": [
          5.346049,
          60.3587722
        ]
      }
    },
    {
      "type": "Feature",
      "properties": {
        "name": "Starefossen"
      },
      "geometry": {
        "type": "Point",
        "coordinates": [
          5.352648,
          60.389172
        ]
      }
    },
    {
      "type": "Feature",
      "properties": {
        "name": "Trollbodalmeningen"
      },
      "geometry": {
        "type": "Point",
        "coordinates": [
          5.3091802,
          60.3994314
        ]
      }
    },
    {
      "type": "Feature",
      "properties": {
        "name": "Stavanger Stadion"
      },
      "geometry": {
        "type": "Point",
        "coordinates": [
          5.7142771,
          58.9660633
        ]
      }
    },
    {
      "type": "Feature",
      "properties": {
        "name": "Rema 1000 Dusavik"
      },
      "geometry": {
        "type": "Point",
        "coordinates": [
          5.6819864,
          58.99486
        ]
      }
    },
    {
      "type": "Feature",
      "properties": {
        "name": "Lassa Idretspark"
      },
      "geometry": {
        "type": "Point",
        "coordinates": [
          5.6909561,
          58.9573397
        ]
      }
    },
    {
      "type": "Feature",
      "properties": {
        "name": "Extra Tasta"
      },
      "geometry": {
        "type": "Point",
        "coordinates": [
          5.6932324,
          58.9882235
        ]
      }
    },
    {
      "type": "Feature",
      "properties": {
        "name": "Nøstegaten"
      },
      "geometry": {
        "type": "Point",
        "coordinates": [
          5.315049,
          60.3923903
        ]
      }
    },
    {
      "type": "Feature",
      "properties": {
        "name": "− Nedre nøttveit"
      },
      "geometry": {
        "type": "Point",
        "coordinates": [
          5.3438369,
          60.2983896
        ]
      }
    },
    {
      "type": "Feature",
      "properties": {
        "name": "Coop prix Grødem"
      },
      "geometry": {
        "type": "Point",
        "coordinates": [
          5.6506731,
          59.0083111
        ]
      }
    },
    {
      "type": "Feature",
      "properties": {
        "name": "Viste Hageby"
      },
      "geometry": {
        "type": "Point",
        "coordinates": [
          5.618854,
          58.9824693
        ]
      }
    },
    {
      "type": "Feature",
      "properties": {
        "name": "Esso Bekkefaret"
      },
      "geometry": {
        "type": "Point",
        "coordinates": [
          5.7235796,
          58.9514092
        ]
      }
    },
    {
      "type": "Feature",
      "properties": {
        "name": "Krokeidevegen"
      },
      "geometry": {
        "type": "Point",
        "coordinates": [
          5.3455495,
          60.2626015
        ]
      }
    },
    {
      "type": "Feature",
      "properties": {
        "name": "Knappenveien"
      },
      "geometry": {
        "type": "Point",
        "coordinates": [
          5.2688377,
          60.322112
        ]
      }
    },
    {
      "type": "Feature",
      "properties": {
        "name": "Spar Helleveien"
      },
      "geometry": {
        "type": "Point",
        "coordinates": [
          5.2945202,
          60.4280853
        ]
      }
    },
    {
      "type": "Feature",
      "properties": {
        "name": "Ulsmåg skole"
      },
      "geometry": {
        "type": "Point",
        "coordinates": [
          5.3764492,
          60.3154042
        ]
      }
    },
    {
      "type": "Feature",
      "properties": {
        "name": "Level Up"
      },
      "geometry": {
        "type": "Point",
        "coordinates": [
          5.8566378,
          58.9300926
        ]
      }
    },
    {
      "type": "Feature",
      "properties": {
        "name": "Kiwi Stryn"
      },
      "geometry": {
        "type": "Point",
        "coordinates": [
          6.7206563,
          61.9029267
        ]
      }
    },
    {
      "type": "Feature",
      "properties": {
        "name": "Meisingset Matkrokken"
      },
      "geometry": {
        "type": "Point",
        "coordinates": [
          8.2893202,
          62.8516613
        ]
      }
    },
    {
      "type": "Feature",
      "properties": {
        "name": "Rema Hillevåg"
      },
      "geometry": {
        "type": "Point",
        "coordinates": [
          5.7419686,
          58.9475108
        ]
      }
    },
    {
      "type": "Feature",
      "properties": {
        "name": "Breimyra"
      },
      "geometry": {
        "type": "Point",
        "coordinates": [
          5.3663251,
          60.4610516
        ]
      }
    },
    {
      "type": "Feature",
      "properties": {
        "name": "Møllendalsveien"
      },
      "geometry": {
        "type": "Point",
        "coordinates": [
          5.3494486,
          60.3784405
        ]
      }
    },
    {
      "type": "Feature",
      "properties": {
        "name": "Tertnes bedehus"
      },
      "geometry": {
        "type": "Point",
        "coordinates": [
          5.2889451,
          60.4569596
        ]
      }
    },
    {
      "type": "Feature",
      "properties": {
        "name": "Trengereid"
      },
      "geometry": {
        "type": "Point",
        "coordinates": [
          5.6249887,
          60.4256913
        ]
      }
    },
    {
      "type": "Feature",
      "properties": {
        "name": "Nærbutikken Vågstranda"
      },
      "geometry": {
        "type": "Point",
        "coordinates": [
          7.2944298,
          62.6063152
        ]
      }
    },
    {
      "type": "Feature",
      "properties": {
        "name": "Mc Donalds"
      },
      "geometry": {
        "type": "Point",
        "coordinates": [
          5.3061485,
          59.3792126
        ]
      }
    },
    {
      "type": "Feature",
      "properties": {
        "name": "Best Byrkjelo"
      },
      "geometry": {
        "type": "Point",
        "coordinates": [
          6.5064639,
          61.7322243
        ]
      }
    },
    {
      "type": "Feature",
      "properties": {
        "name": "Leirvik"
      },
      "geometry": {
        "type": "Point",
        "coordinates": [
          5.5090977,
          59.7790096
        ]
      }
    },
    {
      "type": "Feature",
      "properties": {
        "name": "Esso Hillevåg"
      },
      "geometry": {
        "type": "Point",
        "coordinates": [
          5.7418775,
          58.9489318
        ]
      }
    },
    {
      "type": "Feature",
      "properties": {
        "name": "Nippedalen"
      },
      "geometry": {
        "type": "Point",
        "coordinates": [
          5.2645199,
          60.3669927
        ]
      }
    },
    {
      "type": "Feature",
      "properties": {
        "name": "Rema Ganddal"
      },
      "geometry": {
        "type": "Point",
        "coordinates": [
          5.7132589,
          58.8252105
        ]
      }
    },
    {
      "type": "Feature",
      "properties": {
        "name": "Joker Eidsvik"
      },
      "geometry": {
        "type": "Point",
        "coordinates": [
          5.6808743,
          59.7905376
        ]
      }
    },
    {
      "type": "Feature",
      "properties": {
        "name": "Kiwi/Spar Kjøp Heiane"
      },
      "geometry": {
        "type": "Point",
        "coordinates": [
          5.4560421,
          59.7614302
        ]
      }
    },
    {
      "type": "Feature",
      "properties": {
        "name": "Traneveien"
      },
      "geometry": {
        "type": "Point",
        "coordinates": [
          5.3501938,
          60.303022
        ]
      }
    },
    {
      "type": "Feature",
      "properties": {
        "name": "Point S21 Esso Revheimsveien"
      },
      "geometry": {
        "type": "Point",
        "coordinates": [
          5.6304866,
          58.9609463
        ]
      }
    },
    {
      "type": "Feature",
      "properties": {
        "name": "Garnestangen"
      },
      "geometry": {
        "type": "Point",
        "coordinates": [
          5.4620564,
          60.446692
        ]
      }
    },
    {
      "type": "Feature",
      "properties": {
        "name": "Utløbakken"
      },
      "geometry": {
        "type": "Point",
        "coordinates": [
          5.4724945,
          60.4247595
        ]
      }
    },
    {
      "type": "Feature",
      "properties": {
        "name": "Ågotnes"
      },
      "geometry": {
        "type": "Point",
        "coordinates": [
          4.9880124,
          60.406687
        ]
      }
    },
    {
      "type": "Feature",
      "properties": {
        "name": "BIR Salhus"
      },
      "geometry": {
        "type": "Point",
        "coordinates": [
          5.3094032,
          60.4805062
        ]
      }
    },
    {
      "type": "Feature",
      "properties": {
        "name": "Rema Solvang"
      },
      "geometry": {
        "type": "Point",
        "coordinates": [
          5.2798282,
          59.4201091
        ]
      }
    },
    {
      "type": "Feature",
      "properties": {
        "name": "Extra Eidsvåg"
      },
      "geometry": {
        "type": "Point",
        "coordinates": [
          5.3196566,
          60.4368489
        ]
      }
    },
    {
      "type": "Feature",
      "properties": {
        "name": "Steinsvikvegen"
      },
      "geometry": {
        "type": "Point",
        "coordinates": [
          5.1140438,
          60.3487096
        ]
      }
    },
    {
      "type": "Feature",
      "properties": {
        "name": "Foldnes Skole"
      },
      "geometry": {
        "type": "Point",
        "coordinates": [
          5.1175199,
          60.3661895
        ]
      }
    },
    {
      "type": "Feature",
      "properties": {
        "name": "Vestsidevegen"
      },
      "geometry": {
        "type": "Point",
        "coordinates": [
          5.0061658,
          60.3264604
        ]
      }
    },
    {
      "type": "Feature",
      "properties": {
        "name": "Spar Steinsland"
      },
      "geometry": {
        "type": "Point",
        "coordinates": [
          5.1068125,
          60.1926309
        ]
      }
    },
    {
      "type": "Feature",
      "properties": {
        "name": "Joker Finnås"
      },
      "geometry": {
        "type": "Point",
        "coordinates": [
          5.2326506,
          59.7397457
        ]
      }
    },
    {
      "type": "Feature",
      "properties": {
        "name": "Oalsgate 30"
      },
      "geometry": {
        "type": "Point",
        "coordinates": [
          5.7272895,
          58.8516953
        ]
      }
    },
    {
      "type": "Feature",
      "properties": {
        "name": "BIR Espehaugen"
      },
      "geometry": {
        "type": "Point",
        "coordinates": [
          5.2331332,
          60.2783589
        ]
      }
    },
    {
      "type": "Feature",
      "properties": {
        "name": "Nedrestrandgate"
      },
      "geometry": {
        "type": "Point",
        "coordinates": [
          6.1363328,
          62.4707113
        ]
      }
    },
    {
      "type": "Feature",
      "properties": {
        "name": "SSR Ulsteinvik"
      },
      "geometry": {
        "type": "Point",
        "coordinates": [
          5.8866345,
          62.3365615
        ]
      }
    },
    {
      "type": "Feature",
      "properties": {
        "name": "Hetlandsbanen"
      },
      "geometry": {
        "type": "Point",
        "coordinates": [
          5.7325472,
          58.9355871
        ]
      }
    },
    {
      "type": "Feature",
      "properties": {
        "name": "Meieritomta"
      },
      "geometry": {
        "type": "Point",
        "coordinates": [
          6.1466888,
          60.3687716
        ]
      }
    },
    {
      "type": "Feature",
      "properties": {
        "name": "Fonnes Senter"
      },
      "geometry": {
        "type": "Point",
        "coordinates": [
          4.993173,
          60.8033298
        ]
      }
    },
    {
      "type": "Feature",
      "properties": {
        "name": "Svelgen"
      },
      "geometry": {
        "type": "Point",
        "coordinates": [
          5.2851984,
          61.7653053
        ]
      }
    },
    {
      "type": "Feature",
      "properties": {
        "name": "Extra Digernes"
      },
      "geometry": {
        "type": "Point",
        "coordinates": [
          6.6066749,
          62.4926157
        ]
      }
    },
    {
      "type": "Feature",
      "properties": {
        "name": "Klepp"
      },
      "geometry": {
        "type": "Point",
        "coordinates": [
          5.6304449,
          58.7738106
        ]
      }
    },
    {
      "type": "Feature",
      "properties": {
        "name": "Norheimsund - Rema"
      },
      "geometry": {
        "type": "Point",
        "coordinates": [
          6.1587132,
          60.3702919
        ]
      }
    },
    {
      "type": "Feature",
      "properties": {
        "name": "Storteigen"
      },
      "geometry": {
        "type": "Point",
        "coordinates": [
          6.2008308,
          60.3790443
        ]
      }
    },
    {
      "type": "Feature",
      "properties": {
        "name": "Kvammabygg"
      },
      "geometry": {
        "type": "Point",
        "coordinates": [
          6.1987203,
          60.3875083
        ]
      }
    },
    {
      "type": "Feature",
      "properties": {
        "name": "Strandebarm"
      },
      "geometry": {
        "type": "Point",
        "coordinates": [
          6.0115527,
          60.2613304
        ]
      }
    },
    {
      "type": "Feature",
      "properties": {
        "name": "Tørvikbygd"
      },
      "geometry": {
        "type": "Point",
        "coordinates": [
          6.1696927,
          60.3016487
        ]
      }
    },
    {
      "type": "Feature",
      "properties": {
        "name": "Vikøy"
      },
      "geometry": {
        "type": "Point",
        "coordinates": [
          6.1794155,
          60.3483404
        ]
      }
    },
    {
      "type": "Feature",
      "properties": {
        "name": "Punkt B166"
      },
      "geometry": {
        "type": "Point",
        "coordinates": [
          5.0836815,
          60.8476764
        ]
      }
    },
    {
      "type": "Feature",
      "properties": {
        "name": "Punkt B171"
      },
      "geometry": {
        "type": "Point",
        "coordinates": [
          5.3392706,
          60.3451605
        ]
      }
    },
    {
      "type": "Feature",
      "properties": {
        "name": "KK Senter"
      },
      "geometry": {
        "type": "Point",
        "coordinates": [
          5.2427421,
          60.0867644
        ]
      }
    },
    {
      "type": "Feature",
      "properties": {
        "name": "Matkrokken Bekkjarvik"
      },
      "geometry": {
        "type": "Point",
        "coordinates": [
          5.1946651,
          60.0095419
        ]
      }
    },
    {
      "type": "Feature",
      "properties": {
        "name": "Mjølstadneset"
      },
      "geometry": {
        "type": "Point",
        "coordinates": [
          5.6746765,
          62.3236864
        ]
      }
    },
    {
      "type": "Feature",
      "properties": {
        "name": "Circle K Brattvåg"
      },
      "geometry": {
        "type": "Point",
        "coordinates": [
          6.451524,
          62.5850165
        ]
      }
    },
    {
      "type": "Feature",
      "properties": {
        "name": "Bunnpris Odda"
      },
      "geometry": {
        "type": "Point",
        "coordinates": [
          6.5507822,
          60.0629498
        ]
      }
    },
    {
      "type": "Feature",
      "properties": {
        "name": "Spar Skåla"
      },
      "geometry": {
        "type": "Point",
        "coordinates": [
          7.4238943,
          62.7018187
        ]
      }
    },
    {
      "type": "Feature",
      "properties": {
        "name": "Spar Skjelvik"
      },
      "geometry": {
        "type": "Point",
        "coordinates": [
          7.535549,
          62.7882084
        ]
      }
    },
    {
      "type": "Feature",
      "properties": {
        "name": "Meny Ramnanger"
      },
      "geometry": {
        "type": "Point",
        "coordinates": [
          5.1514093,
          60.4592018
        ]
      }
    },
    {
      "type": "Feature",
      "properties": {
        "name": "Fanatorget"
      },
      "geometry": {
        "type": "Point",
        "coordinates": [
          5.2836389,
          60.3051899
        ]
      }
    },
    {
      "type": "Feature",
      "properties": {
        "name": "Kidsa Ladegården Barnehage"
      },
      "geometry": {
        "type": "Point",
        "coordinates": [
          5.3248949,
          60.4012387
        ]
      }
    },
    {
      "type": "Feature",
      "properties": {
        "name": "Spar Hareid"
      },
      "geometry": {
        "type": "Point",
        "coordinates": [
          6.0280289,
          62.3720465
        ]
      }
    },
    {
      "type": "Feature",
      "properties": {
        "name": "Heddeveien FUS barnehage"
      },
      "geometry": {
        "type": "Point",
        "coordinates": [
          5.7220565,
          58.9009072
        ]
      }
    },
    {
      "type": "Feature",
      "properties": {
        "name": "Håkonshella FUS barnehage"
      },
      "geometry": {
        "type": "Point",
        "coordinates": [
          5.187325,
          60.3444072
        ]
      }
    },
    {
      "type": "Feature",
      "properties": {
        "name": "Rema Kleppestø"
      },
      "geometry": {
        "type": "Point",
        "coordinates": [
          5.2210921,
          60.4062835
        ]
      }
    },
    {
      "type": "Feature",
      "properties": {
        "name": "Copp Longva"
      },
      "geometry": {
        "type": "Point",
        "coordinates": [
          6.2705938,
          62.6717917
        ]
      }
    },
    {
      "type": "Feature",
      "properties": {
        "name": "Coop Austnes"
      },
      "geometry": {
        "type": "Point",
        "coordinates": [
          6.2686819,
          62.6409491
        ]
      }
    },
    {
      "type": "Feature",
      "properties": {
        "name": "KIWI Skåredalen"
      },
      "geometry": {
        "type": "Point",
        "coordinates": [
          5.3181439,
          59.4103466
        ]
      }
    },
    {
      "type": "Feature",
      "properties": {
        "name": "Espira Ree barnehage"
      },
      "geometry": {
        "type": "Point",
        "coordinates": [
          5.6425326,
          58.7271852
        ]
      }
    },
    {
      "type": "Feature",
      "properties": {
        "name": "Bømlo bussterminal"
      },
      "geometry": {
        "type": "Point",
        "coordinates": [
          5.1788048,
          59.7941011
        ]
      }
    },
    {
      "type": "Feature",
      "properties": {
        "name": "Spar Frakkagjerd"
      },
      "geometry": {
        "type": "Point",
        "coordinates": [
          5.40385,
          59.4168415
        ]
      }
    },
    {
      "type": "Feature",
      "properties": {
        "name": "Eivindsholen FUS barnehage"
      },
      "geometry": {
        "type": "Point",
        "coordinates": [
          5.6638237,
          58.7275607
        ]
      }
    },
    {
      "type": "Feature",
      "properties": {
        "name": "Espira Solkroken"
      },
      "geometry": {
        "type": "Point",
        "coordinates": [
          5.317346,
          59.4868551
        ]
      }
    },
    {
      "type": "Feature",
      "properties": {
        "name": "Åmøyveien"
      },
      "geometry": {
        "type": "Point",
        "coordinates": [
          5.6742124,
          59.0557718
        ]
      }
    },
    {
      "type": "Feature",
      "properties": {
        "name": "Vegsund Barnehage"
      },
      "geometry": {
        "type": "Point",
        "coordinates": [
          6.3515293,
          62.4351961
        ]
      }
    },
    {
      "type": "Feature",
      "properties": {
        "name": "Norlandia Bjørkavåg"
      },
      "geometry": {
        "type": "Point",
        "coordinates": [
          6.3027255,
          62.4254629
        ]
      }
    },
    {
      "type": "Feature",
      "properties": {
        "name": "BIR Askøy"
      },
      "geometry": {
        "type": "Point",
        "coordinates": [
          5.1431414,
          60.4727737
        ]
      }
    },
    {
      "type": "Feature",
      "properties": {
        "name": "BIR Os"
      },
      "geometry": {
        "type": "Point",
        "coordinates": [
          5.4462082,
          60.2004133
        ]
      }
    },
    {
      "type": "Feature",
      "properties": {
        "name": "BIR Osterøy"
      },
      "geometry": {
        "type": "Point",
        "coordinates": [
          5.4713807,
          60.5042284
        ]
      }
    },
    {
      "type": "Feature",
      "properties": {
        "name": "Kidsa Myrdal"
      },
      "geometry": {
        "type": "Point",
        "coordinates": [
          5.3127893,
          60.4713195
        ]
      }
    },
    {
      "type": "Feature",
      "properties": {
        "name": "Bunnpris Steinsviken"
      },
      "geometry": {
        "type": "Point",
        "coordinates": [
          5.3031827,
          60.3011237
        ]
      }
    },
    {
      "type": "Feature",
      "properties": {
        "name": "Fana Arena"
      },
      "geometry": {
        "type": "Point",
        "coordinates": [
          5.3577604,
          60.3082098
        ]
      }
    },
    {
      "type": "Feature",
      "properties": {
        "name": "Gneist Idrettslag klubbhus"
      },
      "geometry": {
        "type": "Point",
        "coordinates": [
          5.2436372,
          60.2848785
        ]
      }
    },
    {
      "type": "Feature",
      "properties": {
        "name": "Øyjordsveien"
      },
      "geometry": {
        "type": "Point",
        "coordinates": [
          5.3023387,
          60.429149
        ]
      }
    },
    {
      "type": "Feature",
      "properties": {
        "name": "Nyhavnsveien"
      },
      "geometry": {
        "type": "Point",
        "coordinates": [
          5.3091156,
          60.4188593
        ]
      }
    },
    {
      "type": "Feature",
      "properties": {
        "name": "Læringsverkstedet Maurtua AS Barnehage"
      },
      "geometry": {
        "type": "Point",
        "coordinates": [
          5.2249862,
          60.5104518
        ]
      }
    },
    {
      "type": "Feature",
      "properties": {
        "name": "Sauafjellet FUS barnehage as"
      },
      "geometry": {
        "type": "Point",
        "coordinates": [
          5.0873966,
          60.264309
        ]
      }
    },
    {
      "type": "Feature",
      "properties": {
        "name": "Bjorøy barnehage"
      },
      "geometry": {
        "type": "Point",
        "coordinates": [
          5.1745586,
          60.320337
        ]
      }
    },
    {
      "type": "Feature",
      "properties": {
        "name": "Krokkusbakken Læringsverkstedet Barnehage"
      },
      "geometry": {
        "type": "Point",
        "coordinates": [
          5.26344,
          60.2540742
        ]
      }
    },
    {
      "type": "Feature",
      "properties": {
        "name": "REIGSTADVEGEN 5"
      },
      "geometry": {
        "type": "Point",
        "coordinates": [
          5.4315875,
          60.5055666
        ]
      }
    },
    {
      "type": "Feature",
      "properties": {
        "name": "BIR Raunekleivvegen 88, 5652 Årland"
      },
      "geometry": {
        "type": "Point",
        "coordinates": [
          5.699068,
          60.3954105
        ]
      }
    },
    {
      "type": "Feature",
      "properties": {
        "name": "Spar Seimstrand"
      },
      "geometry": {
        "type": "Point",
        "coordinates": [
          5.2777734,
          60.6121601
        ]
      }
    },
    {
      "type": "Feature",
      "properties": {
        "name": "Spar Uskedalen"
      },
      "geometry": {
        "type": "Point",
        "coordinates": [
          5.8597278,
          59.9315178
        ]
      }
    },
    {
      "type": "Feature",
      "properties": {
        "name": "Coop Prix Jondal"
      },
      "geometry": {
        "type": "Point",
        "coordinates": [
          6.25261,
          60.2770142
        ]
      }
    },
    {
      "type": "Feature",
      "properties": {
        "name": "Nærbutikken Tyssedal"
      },
      "geometry": {
        "type": "Point",
        "coordinates": [
          6.5597101,
          60.1161877
        ]
      }
    },
    {
      "type": "Feature",
      "properties": {
        "name": "Rema Wergeland"
      },
      "geometry": {
        "type": "Point",
        "coordinates": [
          5.3509633,
          60.360257
        ]
      }
    },
    {
      "type": "Feature",
      "properties": {
        "name": "Kiwi Birkelundstoppen"
      },
      "geometry": {
        "type": "Point",
        "coordinates": [
          5.3637232,
          60.3450957
        ]
      }
    },
    {
      "type": "Feature",
      "properties": {
        "name": "Erlevegen"
      },
      "geometry": {
        "type": "Point",
        "coordinates": [
          5.7124851,
          58.7918699
        ]
      }
    },
    {
      "type": "Feature",
      "properties": {
        "name": "Storfjord kulturhus"
      },
      "geometry": {
        "type": "Point",
        "coordinates": [
          6.9456987,
          62.3076843
        ]
      }
    },
    {
      "type": "Feature",
      "properties": {
        "name": "Rossåsen / Småkjelvene"
      },
      "geometry": {
        "type": "Point",
        "coordinates": [
          5.8225011,
          58.7811254
        ]
      }
    },
    {
      "type": "Feature",
      "properties": {
        "name": "Nymarkbakken FUS Barnehage"
      },
      "geometry": {
        "type": "Point",
        "coordinates": [
          6.1974246,
          62.4427662
        ]
      }
    },
    {
      "type": "Feature",
      "properties": {
        "name": "Lande FUS barnehage"
      },
      "geometry": {
        "type": "Point",
        "coordinates": [
          6.8471572,
          62.4839052
        ]
      }
    },
    {
      "type": "Feature",
      "properties": {
        "name": "Tjønnvegen"
      },
      "geometry": {
        "type": "Point",
        "coordinates": [
          5.6772151,
          58.7783773
        ]
      }
    },
    {
      "type": "Feature",
      "properties": {
        "name": "YX 7Eleven Langevåg"
      },
      "geometry": {
        "type": "Point",
        "coordinates": [
          6.1944127,
          62.4404186
        ]
      }
    },
    {
      "type": "Feature",
      "properties": {
        "name": "Coop Mega Volda"
      },
      "geometry": {
        "type": "Point",
        "coordinates": [
          6.0711483,
          62.1431402
        ]
      }
    },
    {
      "type": "Feature",
      "properties": {
        "name": "Joker Gursken"
      },
      "geometry": {
        "type": "Point",
        "coordinates": [
          5.6501265,
          62.2161345
        ]
      }
    },
    {
      "type": "Feature",
      "properties": {
        "name": "Norlandia Støylane barnehage"
      },
      "geometry": {
        "type": "Point",
        "coordinates": [
          5.8757004,
          62.3419718
        ]
      }
    },
    {
      "type": "Feature",
      "properties": {
        "name": "Foren"
      },
      "geometry": {
        "type": "Point",
        "coordinates": [
          5.7150408,
          58.8467753
        ]
      }
    },
    {
      "type": "Feature",
      "properties": {
        "name": "Coop Marked Vevang"
      },
      "geometry": {
        "type": "Point",
        "coordinates": [
          7.294084,
          63.0033101
        ]
      }
    },
    {
      "type": "Feature",
      "properties": {
        "name": "Leikanger"
      },
      "geometry": {
        "type": "Point",
        "coordinates": [
          5.3235689,
          62.1170537
        ]
      }
    },
    {
      "type": "Feature",
      "properties": {
        "name": "Rådhusgaten"
      },
      "geometry": {
        "type": "Point",
        "coordinates": [
          6.0432873,
          59.0226179
        ]
      }
    },
    {
      "type": "Feature",
      "properties": {
        "name": "Nesjane"
      },
      "geometry": {
        "type": "Point",
        "coordinates": [
          6.0806225,
          58.6306922
        ]
      }
    },
    {
      "type": "Feature",
      "properties": {
        "name": "Rørstadmarka barnehage"
      },
      "geometry": {
        "type": "Point",
        "coordinates": [
          6.271169,
          62.4302895
        ]
      }
    },
    {
      "type": "Feature",
      "properties": {
        "name": "Devoldfabrikken"
      },
      "geometry": {
        "type": "Point",
        "coordinates": [
          6.1895878,
          62.4404033
        ]
      }
    },
    {
      "type": "Feature",
      "properties": {
        "name": "Verona pizza"
      },
      "geometry": {
        "type": "Point",
        "coordinates": [
          5.8447135,
          62.3443289
        ]
      }
    },
    {
      "type": "Feature",
      "properties": {
        "name": "Egersund, v/Dekkbutikken"
      },
      "geometry": {
        "type": "Point",
        "coordinates": [
          5.9965907,
          58.4771129
        ]
      }
    },
    {
      "type": "Feature",
      "properties": {
        "name": "Spar Eigerøy"
      },
      "geometry": {
        "type": "Point",
        "coordinates": [
          5.9750207,
          58.452094
        ]
      }
    },
    {
      "type": "Feature",
      "properties": {
        "name": "Flassabekken barnehage Ålgård"
      },
      "geometry": {
        "type": "Point",
        "coordinates": [
          5.8632163,
          58.7714724
        ]
      }
    },
    {
      "type": "Feature",
      "properties": {
        "name": "Plantasjen Ålesund"
      },
      "geometry": {
        "type": "Point",
        "coordinates": [
          6.3687648,
          62.4714869
        ]
      }
    },
    {
      "type": "Feature",
      "properties": {
        "name": "Kiwi Nærbø"
      },
      "geometry": {
        "type": "Point",
        "coordinates": [
          5.64474,
          58.667961
        ]
      }
    },
    {
      "type": "Feature",
      "properties": {
        "name": "Coop Prix Hellvik"
      },
      "geometry": {
        "type": "Point",
        "coordinates": [
          5.8726368,
          58.4809424
        ]
      }
    },
    {
      "type": "Feature",
      "properties": {
        "name": "Coop Marked Granvin"
      },
      "geometry": {
        "type": "Point",
        "coordinates": [
          6.721121,
          60.5246586
        ]
      }
    },
    {
      "type": "Feature",
      "properties": {
        "name": "FV208 / Søre Øyavegen"
      },
      "geometry": {
        "type": "Point",
        "coordinates": [
          4.9819095,
          60.3427484
        ]
      }
    },
    {
      "type": "Feature",
      "properties": {
        "name": "Laksevåghallen"
      },
      "geometry": {
        "type": "Point",
        "coordinates": [
          5.2715967,
          60.3830769
        ]
      }
    },
    {
      "type": "Feature",
      "properties": {
        "name": "Vadmyrahallen"
      },
      "geometry": {
        "type": "Point",
        "coordinates": [
          5.2294445,
          60.3567885
        ]
      }
    },
    {
      "type": "Feature",
      "properties": {
        "name": "Hordnesvegen"
      },
      "geometry": {
        "type": "Point",
        "coordinates": [
          5.3220465,
          60.2724928
        ]
      }
    },
    {
      "type": "Feature",
      "properties": {
        "name": "Landåshallen"
      },
      "geometry": {
        "type": "Point",
        "coordinates": [
          5.3680633,
          60.3637228
        ]
      }
    },
    {
      "type": "Feature",
      "properties": {
        "name": "Bøneshallen"
      },
      "geometry": {
        "type": "Point",
        "coordinates": [
          5.2955301,
          60.3333792
        ]
      }
    },
    {
      "type": "Feature",
      "properties": {
        "name": "Bjørnarhallen"
      },
      "geometry": {
        "type": "Point",
        "coordinates": [
          5.4631527,
          60.4428065
        ]
      }
    },
    {
      "type": "Feature",
      "properties": {
        "name": "BIR Vaksdal"
      },
      "geometry": {
        "type": "Point",
        "coordinates": [
          5.7991857,
          60.584317
        ]
      }
    },
    {
      "type": "Feature",
      "properties": {
        "name": "Coop Marked Stanghelle"
      },
      "geometry": {
        "type": "Point",
        "coordinates": [
          5.7391954,
          60.5519281
        ]
      }
    },
    {
      "type": "Feature",
      "properties": {
        "name": "NGIR Manger"
      },
      "geometry": {
        "type": "Point",
        "coordinates": [
          5.0532723,
          60.6416694
        ]
      }
    },
    {
      "type": "Feature",
      "properties": {
        "name": "Stanghelle"
      },
      "geometry": {
        "type": "Point",
        "coordinates": [
          5.7380234,
          60.5507668
        ]
      }
    },
    {
      "type": "Feature",
      "properties": {
        "name": "Øygarden Kulturhus"
      },
      "geometry": {
        "type": "Point",
        "coordinates": [
          4.9041387,
          60.5163409
        ]
      }
    },
    {
      "type": "Feature",
      "properties": {
        "name": "Gardsvegen 10b"
      },
      "geometry": {
        "type": "Point",
        "coordinates": [
          5.7367902,
          58.5580283
        ]
      }
    },